[[{"constructor":"alfa","code":"BOT","birth_date":"1989-08-28","nationality":"Finnish","name":"Valtteri","second_name":"Bottas","driverId":"bottas","perm_num":77,"standings":[{"raceName":"Bahrain Grand Prix","pos":"8","date":"2023-03-05","circuit":{"circuitId":"bahrain","circuitName":"Bahrain International Circuit","location":{"locality":"Sakhir","country":"Bahrain"}}},{"raceName":"Saudi Arabian Grand Prix","pos":"18","date":"2023-03-19","circuit":{"circuitId":"jeddah","circuitName":"Jeddah Corniche Circuit","location":{"locality":"Jeddah","country":"Saudi Arabia"}}},{"raceName":"Australian Grand Prix","pos":"11","date":"2023-04-02","circuit":{"circuitId":"albert_park","circuitName":"Albert Park Grand Prix Circuit","location":{"locality":"Melbourne","country":"Australia"}}},{"raceName":"Azerbaijan Grand Prix","pos":"18","date":"2023-04-30","circuit":{"circuitId":"baku","circuitName":"Baku City Circuit","location":{"locality":"Baku","country":"Azerbaijan"}}},{"raceName":"Miami Grand Prix","pos":"13","date":"2023-05-07","circuit":{"circuitId":"miami","circuitName":"Miami International Autodrome","location":{"locality":"Miami","country":"USA"}}},{"raceName":"Monaco Grand Prix","pos":"11","date":"2023-05-28","circuit":{"circuitId":"monaco","circuitName":"Circuit de Monaco","location":{"locality":"Monte-Carlo","country":"Monaco"}}},{"raceName":"Spanish Grand Prix","pos":"19","date":"2023-06-04","circuit":{"circuitId":"catalunya","circuitName":"Circuit de Barcelona-Catalunya","location":{"locality":"Montmeló","country":"Spain"}}},{"raceName":"Canadian Grand Prix","pos":"10","date":"2023-06-18","circuit":{"circuitId":"villeneuve","circuitName":"Circuit Gilles Villeneuve","location":{"locality":"Montreal","country":"Canada"}}}]},{"constructor":"alfa","code":"ZHO","birth_date":"1999-05-30","nationality":"Chinese","name":"Guanyu","second_name":"Zhou","driverId":"zhou","perm_num":24,"standings":[{"raceName":"Bahrain Grand Prix","pos":"16","date":"2023-03-05","circuit":{"circuitId":"bahrain","circuitName":"Bahrain International Circuit","location":{"locality":"Sakhir","country":"Bahrain"}}},{"raceName":"Saudi Arabian Grand Prix","pos":"13","date":"2023-03-19","circuit":{"circuitId":"jeddah","circuitName":"Jeddah Corniche Circuit","location":{"locality":"Jeddah","country":"Saudi Arabia"}}},{"raceName":"Australian Grand Prix","pos":"9","date":"2023-04-02","circuit":{"circuitId":"albert_park","circuitName":"Albert Park Grand Prix Circuit","location":{"locality":"Melbourne","country":"Australia"}}},{"raceName":"Azerbaijan Grand Prix","pos":"19","date":"2023-04-30","circuit":{"circuitId":"baku","circuitName":"Baku City Circuit","location":{"locality":"Baku","country":"Azerbaijan"}}},{"raceName":"Miami Grand Prix","pos":"16","date":"2023-05-07","circuit":{"circuitId":"miami","circuitName":"Miami International Autodrome","location":{"locality":"Miami","country":"USA"}}},{"raceName":"Monaco Grand Prix","pos":"13","date":"2023-05-28","circuit":{"circuitId":"monaco","circuitName":"Circuit de Monaco","location":{"locality":"Monte-Carlo","country":"Monaco"}}},{"raceName":"Spanish Grand Prix","pos":"9","date":"2023-06-04","circuit":{"circuitId":"catalunya","circuitName":"Circuit de Barcelona-Catalunya","location":{"locality":"Montmeló","country":"Spain"}}},{"raceName":"Canadian Grand Prix","pos":"16","date":"2023-06-18","circuit":{"circuitId":"villeneuve","circuitName":"Circuit Gilles Villeneuve","location":{"locality":"Montreal","country":"Canada"}}}]},{"constructor":"alphatauri","code":"DEV","birth_date":"1995-02-06","nationality":"Dutch","name":"Nyck","second_name":"de Vries","driverId":"de_vries","perm_num":21,"standings":[{"raceName":"Bahrain Grand Prix","pos":"14","date":"2023-03-05","circuit":{"circuitId":"bahrain","circuitName":"Bahrain International Circuit","location":{"locality":"Sakhir","country":"Bahrain"}}},{"raceName":"Saudi Arabian Grand Prix","pos":"14","date":"2023-03-19","circuit":{"circuitId":"jeddah","circuitName":"Jeddah Corniche Circuit","location":{"locality":"Jeddah","country":"Saudi Arabia"}}},{"raceName":"Australian Grand Prix","pos":"15","date":"2023-04-02","circuit":{"circuitId":"albert_park","circuitName":"Albert Park Grand Prix Circuit","location":{"locality":"Melbourne","country":"Australia"}}},{"raceName":"Azerbaijan Grand Prix","pos":"20","date":"2023-04-30","circuit":{"circuitId":"baku","circuitName":"Baku City Circuit","location":{"locality":"Baku","country":"Azerbaijan"}}},{"raceName":"Miami Grand Prix","pos":"18","date":"2023-05-07","circuit":{"circuitId":"miami","circuitName":"Miami International Autodrome","location":{"locality":"Miami","country":"USA"}}},{"raceName":"Monaco Grand Prix","pos":"12","date":"2023-05-28","circuit":{"circuitId":"monaco","circuitName":"Circuit de Monaco","location":{"locality":"Monte-Carlo","country":"Monaco"}}},{"raceName":"Spanish Grand Prix","pos":"14","date":"2023-06-04","circuit":{"circuitId":"catalunya","circuitName":"Circuit de Barcelona-Catalunya","location":{"locality":"Montmeló","country":"Spain"}}},{"raceName":"Canadian Grand Prix","pos":"18","date":"2023-06-18","circuit":{"circuitId":"villeneuve","circuitName":"Circuit Gilles Villeneuve","location":{"locality":"Montreal","country":"Canada"}}}]},{"constructor":"alphatauri","code":"TSU","birth_date":"2000-05-11","nationality":"Japanese","name":"Yuki","second_name":"Tsunoda","driverId":"tsunoda","perm_num":22,"standings":[{"raceName":"Bahrain Grand Prix","pos":"11","date":"2023-03-05","circuit":{"circuitId":"bahrain","circuitName":"Bahrain International Circuit","location":{"locality":"Sakhir","country":"Bahrain"}}},{"raceName":"Saudi Arabian Grand Prix","pos":"11","date":"2023-03-19","circuit":{"circuitId":"jeddah","circuitName":"Jeddah Corniche Circuit","location":{"locality":"Jeddah","country":"Saudi Arabia"}}},{"raceName":"Australian Grand Prix","pos":"10","date":"2023-04-02","circuit":{"circuitId":"albert_park","circuitName":"Albert Park Grand Prix Circuit","location":{"locality":"Melbourne","country":"Australia"}}},{"raceName":"Azerbaijan Grand Prix","pos":"10","date":"2023-04-30","circuit":{"circuitId":"baku","circuitName":"Baku City Circuit","location":{"locality":"Baku","country":"Azerbaijan"}}},{"raceName":"Miami Grand Prix","pos":"11","date":"2023-05-07","circuit":{"circuitId":"miami","circuitName":"Miami International Autodrome","location":{"locality":"Miami","country":"USA"}}},{"raceName":"Monaco Grand Prix","pos":"15","date":"2023-05-28","circuit":{"circuitId":"monaco","circuitName":"Circuit de Monaco","location":{"locality":"Monte-Carlo","country":"Monaco"}}},{"raceName":"Spanish Grand Prix","pos":"12","date":"2023-06-04","circuit":{"circuitId":"catalunya","circuitName":"Circuit de Barcelona-Catalunya","location":{"locality":"Montmeló","country":"Spain"}}},{"raceName":"Canadian Grand Prix","pos":"14","date":"2023-06-18","circuit":{"circuitId":"villeneuve","circuitName":"Circuit Gilles Villeneuve","location":{"locality":"Montreal","country":"Canada"}}}]},{"constructor":"alpine","code":"GAS","birth_date":"1996-02-07","nationality":"French","name":"Pierre","second_name":"Gasly","driverId":"gasly","perm_num":10,"standings":[{"raceName":"Bahrain Grand Prix","pos":"9","date":"2023-03-05","circuit":{"circuitId":"bahrain","circuitName":"Bahrain International Circuit","location":{"locality":"Sakhir","country":"Bahrain"}}},{"raceName":"Saudi Arabian Grand Prix","pos":"9","date":"2023-03-19","circuit":{"circuitId":"jeddah","circuitName":"Jeddah Corniche Circuit","location":{"locality":"Jeddah","country":"Saudi Arabia"}}},{"raceName":"Australian Grand Prix","pos":"13","date":"2023-04-02","circuit":{"circuitId":"albert_park","circuitName":"Albert Park Grand Prix Circuit","location":{"locality":"Melbourne","country":"Australia"}}},{"raceName":"Azerbaijan Grand Prix","pos":"14","date":"2023-04-30","circuit":{"circuitId":"baku","circuitName":"Baku City Circuit","location":{"locality":"Baku","country":"Azerbaijan"}}},{"raceName":"Miami Grand Prix","pos":"8","date":"2023-05-07","circuit":{"circuitId":"miami","circuitName":"Miami International Autodrome","location":{"locality":"Miami","country":"USA"}}},{"raceName":"Monaco Grand Prix","pos":"7","date":"2023-05-28","circuit":{"circuitId":"monaco","circuitName":"Circuit de Monaco","location":{"locality":"Monte-Carlo","country":"Monaco"}}},{"raceName":"Spanish Grand Prix","pos":"10","date":"2023-06-04","circuit":{"circuitId":"catalunya","circuitName":"Circuit de Barcelona-Catalunya","location":{"locality":"Montmeló","country":"Spain"}}},{"raceName":"Canadian Grand Prix","pos":"12","date":"2023-06-18","circuit":{"circuitId":"villeneuve","circuitName":"Circuit Gilles Villeneuve","location":{"locality":"Montreal","country":"Canada"}}}]},{"constructor":"alpine","code":"OCO","birth_date":"1996-09-17","nationality":"French","name":"Esteban","second_name":"Ocon","driverId":"ocon","perm_num":31,"standings":[{"raceName":"Bahrain Grand Prix","pos":"18","date":"2023-03-05","circuit":{"circuitId":"bahrain","circuitName":"Bahrain International Circuit","location":{"locality":"Sakhir","country":"Bahrain"}}},{"raceName":"Saudi Arabian Grand Prix","pos":"8","date":"2023-03-19","circuit":{"circuitId":"jeddah","circuitName":"Jeddah Corniche Circuit","location":{"locality":"Jeddah","country":"Saudi Arabia"}}},{"raceName":"Australian Grand Prix","pos":"14","date":"2023-04-02","circuit":{"circuitId":"albert_park","circuitName":"Albert Park Grand Prix Circuit","location":{"locality":"Melbourne","country":"Australia"}}},{"raceName":"Azerbaijan Grand Prix","pos":"15","date":"2023-04-30","circuit":{"circuitId":"baku","circuitName":"Baku City Circuit","location":{"locality":"Baku","country":"Azerbaijan"}}},{"raceName":"Miami Grand Prix","pos":"9","date":"2023-05-07","circuit":{"circuitId":"miami","circuitName":"Miami International Autodrome","location":{"locality":"Miami","country":"USA"}}},{"raceName":"Monaco Grand Prix","pos":"3","date":"2023-05-28","circuit":{"circuitId":"monaco","circuitName":"Circuit de Monaco","location":{"locality":"Monte-Carlo","country":"Monaco"}}},{"raceName":"Spanish Grand Prix","pos":"8","date":"2023-06-04","circuit":{"circuitId":"catalunya","circuitName":"Circuit de Barcelona-Catalunya","location":{"locality":"Montmeló","country":"Spain"}}},{"raceName":"Canadian Grand Prix","pos":"8","date":"2023-06-18","circuit":{"circuitId":"villeneuve","circuitName":"Circuit Gilles Villeneuve","location":{"locality":"Montreal","country":"Canada"}}}]},{"constructor":"aston_martin","code":"ALO","birth_date":"1981-07-29","nationality":"Spanish","name":"Fernando","second_name":"Alonso","driverId":"alonso","perm_num":14,"standings":[{"raceName":"Bahrain Grand Prix","pos":"3","date":"2023-03-05","circuit":{"circuitId":"bahrain","circuitName":"Bahrain International Circuit","location":{"locality":"Sakhir","country":"Bahrain"}}},{"raceName":"Saudi Arabian Grand Prix","pos":"3","date":"2023-03-19","circuit":{"circuitId":"jeddah","circuitName":"Jeddah Corniche Circuit","location":{"locality":"Jeddah","country":"Saudi Arabia"}}},{"raceName":"Australian Grand Prix","pos":"3","date":"2023-04-02","circuit":{"circuitId":"albert_park","circuitName":"Albert Park Grand Prix Circuit","location":{"locality":"Melbourne","country":"Australia"}}},{"raceName":"Azerbaijan Grand Prix","pos":"4","date":"2023-04-30","circuit":{"circuitId":"baku","circuitName":"Baku City Circuit","location":{"locality":"Baku","country":"Azerbaijan"}}},{"raceName":"Miami Grand Prix","pos":"3","date":"2023-05-07","circuit":{"circuitId":"miami","circuitName":"Miami International Autodrome","location":{"locality":"Miami","country":"USA"}}},{"raceName":"Monaco Grand Prix","pos":"2","date":"2023-05-28","circuit":{"circuitId":"monaco","circuitName":"Circuit de Monaco","location":{"locality":"Monte-Carlo","country":"Monaco"}}},{"raceName":"Spanish Grand Prix","pos":"7","date":"2023-06-04","circuit":{"circuitId":"catalunya","circuitName":"Circuit de Barcelona-Catalunya","location":{"locality":"Montmeló","country":"Spain"}}},{"raceName":"Canadian Grand Prix","pos":"2","date":"2023-06-18","circuit":{"circuitId":"villeneuve","circuitName":"Circuit Gilles Villeneuve","location":{"locality":"Montreal","country":"Canada"}}}]},{"constructor":"aston_martin","code":"STR","birth_date":"1998-10-29","nationality":"Canadian","name":"Lance","second_name":"Stroll","driverId":"stroll","perm_num":18,"standings":[{"raceName":"Bahrain Grand Prix","pos":"6","date":"2023-03-05","circuit":{"circuitId":"bahrain","circuitName":"Bahrain International Circuit","location":{"locality":"Sakhir","country":"Bahrain"}}},{"raceName":"Saudi Arabian Grand Prix","pos":"20","date":"2023-03-19","circuit":{"circuitId":"jeddah","circuitName":"Jeddah Corniche Circuit","location":{"locality":"Jeddah","country":"Saudi Arabia"}}},{"raceName":"Australian Grand Prix","pos":"4","date":"2023-04-02","circuit":{"circuitId":"albert_park","circuitName":"Albert Park Grand Prix Circuit","location":{"locality":"Melbourne","country":"Australia"}}},{"raceName":"Azerbaijan Grand Prix","pos":"7","date":"2023-04-30","circuit":{"circuitId":"baku","circuitName":"Baku City Circuit","location":{"locality":"Baku","country":"Azerbaijan"}}},{"raceName":"Miami Grand Prix","pos":"12","date":"2023-05-07","circuit":{"circuitId":"miami","circuitName":"Miami International Autodrome","location":{"locality":"Miami","country":"USA"}}},{"raceName":"Monaco Grand Prix","pos":"20","date":"2023-05-28","circuit":{"circuitId":"monaco","circuitName":"Circuit de Monaco","location":{"locality":"Monte-Carlo","country":"Monaco"}}},{"raceName":"Spanish Grand Prix","pos":"6","date":"2023-06-04","circuit":{"circuitId":"catalunya","circuitName":"Circuit de Barcelona-Catalunya","location":{"locality":"Montmeló","country":"Spain"}}},{"raceName":"Canadian Grand Prix","pos":"9","date":"2023-06-18","circuit":{"circuitId":"villeneuve","circuitName":"Circuit Gilles Villeneuve","location":{"locality":"Montreal","country":"Canada"}}}]},{"constructor":"ferrari","code":"LEC","birth_date":"1997-10-16","nationality":"Monegasque","name":"Charles","second_name":"Leclerc","driverId":"leclerc","perm_num":16,"standings":[{"raceName":"Bahrain Grand Prix","pos":"19","date":"2023-03-05","circuit":{"circuitId":"bahrain","circuitName":"Bahrain International Circuit","location":{"locality":"Sakhir","country":"Bahrain"}}},{"raceName":"Saudi Arabian Grand Prix","pos":"7","date":"2023-03-19","circuit":{"circuitId":"jeddah","circuitName":"Jeddah Corniche Circuit","location":{"locality":"Jeddah","country":"Saudi Arabia"}}},{"raceName":"Australian Grand Prix","pos":"20","date":"2023-04-02","circuit":{"circuitId":"albert_park","circuitName":"Albert Park Grand Prix Circuit","location":{"locality":"Melbourne","country":"Australia"}}},{"raceName":"Azerbaijan Grand Prix","pos":"3","date":"2023-04-30","circuit":{"circuitId":"baku","circuitName":"Baku City Circuit","location":{"locality":"Baku","country":"Azerbaijan"}}},{"raceName":"Miami Grand Prix","pos":"7","date":"2023-05-07","circuit":{"circuitId":"miami","circuitName":"Miami International Autodrome","location":{"locality":"Miami","country":"USA"}}},{"raceName":"Monaco Grand Prix","pos":"6","date":"2023-05-28","circuit":{"circuitId":"monaco","circuitName":"Circuit de Monaco","location":{"locality":"Monte-Carlo","country":"Monaco"}}},{"raceName":"Spanish Grand Prix","pos":"11","date":"2023-06-04","circuit":{"circuitId":"catalunya","circuitName":"Circuit de Barcelona-Catalunya","location":{"locality":"Montmeló","country":"Spain"}}},{"raceName":"Canadian Grand Prix","pos":"4","date":"2023-06-18","circuit":{"circuitId":"villeneuve","circuitName":"Circuit Gilles Villeneuve","location":{"locality":"Montreal","country":"Canada"}}}]},{"constructor":"ferrari","code":"SAI","birth_date":"1994-09-01","nationality":"Spanish","name":"Carlos","second_name":"Sainz","driverId":"sainz","perm_num":55,"standings":[{"raceName":"Bahrain Grand Prix","pos":"4","date":"2023-03-05","circuit":{"circuitId":"bahrain","circuitName":"Bahrain International Circuit","location":{"locality":"Sakhir","country":"Bahrain"}}},{"raceName":"Saudi Arabian Grand Prix","pos":"6","date":"2023-03-19","circuit":{"circuitId":"jeddah","circuitName":"Jeddah Corniche Circuit","location":{"locality":"Jeddah","country":"Saudi Arabia"}}},{"raceName":"Australian Grand Prix","pos":"12","date":"2023-04-02","circuit":{"circuitId":"albert_park","circuitName":"Albert Park Grand Prix Circuit","location":{"locality":"Melbourne","country":"Australia"}}},{"raceName":"Azerbaijan Grand Prix","pos":"5","date":"2023-04-30","circuit":{"circuitId":"baku","circuitName":"Baku City Circuit","location":{"locality":"Baku","country":"Azerbaijan"}}},{"raceName":"Miami Grand Prix","pos":"5","date":"2023-05-07","circuit":{"circuitId":"miami","circuitName":"Miami International Autodrome","location":{"locality":"Miami","country":"USA"}}},{"raceName":"Monaco Grand Prix","pos":"8","date":"2023-05-28","circuit":{"circuitId":"monaco","circuitName":"Circuit de Monaco","location":{"locality":"Monte-Carlo","country":"Monaco"}}},{"raceName":"Spanish Grand Prix","pos":"5","date":"2023-06-04","circuit":{"circuitId":"catalunya","circuitName":"Circuit de Barcelona-Catalunya","location":{"locality":"Montmeló","country":"Spain"}}},{"raceName":"Canadian Grand Prix","pos":"5","date":"2023-06-18","circuit":{"circuitId":"villeneuve","circuitName":"Circuit Gilles Villeneuve","location":{"locality":"Montreal","country":"Canada"}}}]},{"constructor":"haas","code":"HUL","birth_date":"1987-08-19","nationality":"German","name":"Nico","second_name":"Hülkenberg","driverId":"hulkenberg","perm_num":27,"standings":[{"raceName":"Bahrain Grand Prix","pos":"15","date":"2023-03-05","circuit":{"circuitId":"bahrain","circuitName":"Bahrain International Circuit","location":{"locality":"Sakhir","country":"Bahrain"}}},{"raceName":"Saudi Arabian Grand Prix","pos":"12","date":"2023-03-19","circuit":{"circuitId":"jeddah","circuitName":"Jeddah Corniche Circuit","location":{"locality":"Jeddah","country":"Saudi Arabia"}}},{"raceName":"Australian Grand Prix","pos":"7","date":"2023-04-02","circuit":{"circuitId":"albert_park","circuitName":"Albert Park Grand Prix Circuit","location":{"locality":"Melbourne","country":"Australia"}}},{"raceName":"Azerbaijan Grand Prix","pos":"17","date":"2023-04-30","circuit":{"circuitId":"baku","circuitName":"Baku City Circuit","location":{"locality":"Baku","country":"Azerbaijan"}}},{"raceName":"Miami Grand Prix","pos":"15","date":"2023-05-07","circuit":{"circuitId":"miami","circuitName":"Miami International Autodrome","location":{"locality":"Miami","country":"USA"}}},{"raceName":"Monaco Grand Prix","pos":"17","date":"2023-05-28","circuit":{"circuitId":"monaco","circuitName":"Circuit de Monaco","location":{"locality":"Monte-Carlo","country":"Monaco"}}},{"raceName":"Spanish Grand Prix","pos":"15","date":"2023-06-04","circuit":{"circuitId":"catalunya","circuitName":"Circuit de Barcelona-Catalunya","location":{"locality":"Montmeló","country":"Spain"}}},{"raceName":"Canadian Grand Prix","pos":"15","date":"2023-06-18","circuit":{"circuitId":"villeneuve","circuitName":"Circuit Gilles Villeneuve","location":{"locality":"Montreal","country":"Canada"}}}]},{"constructor":"haas","code":"MAG","birth_date":"1992-10-05","nationality":"Danish","name":"Kevin","second_name":"Magnussen","driverId":"kevin_magnussen","perm_num":20,"standings":[{"raceName":"Bahrain Grand Prix","pos":"13","date":"2023-03-05","circuit":{"circuitId":"bahrain","circuitName":"Bahrain International Circuit","location":{"locality":"Sakhir","country":"Bahrain"}}},{"raceName":"Saudi Arabian Grand Prix","pos":"10","date":"2023-03-19","circuit":{"circuitId":"jeddah","circuitName":"Jeddah Corniche Circuit","location":{"locality":"Jeddah","country":"Saudi Arabia"}}},{"raceName":"Australian Grand Prix","pos":"17","date":"2023-04-02","circuit":{"circuitId":"albert_park","circuitName":"Albert Park Grand Prix Circuit","location":{"locality":"Melbourne","country":"Australia"}}},{"raceName":"Azerbaijan Grand Prix","pos":"13","date":"2023-04-30","circuit":{"circuitId":"baku","circuitName":"Baku City Circuit","location":{"locality":"Baku","country":"Azerbaijan"}}},{"raceName":"Miami Grand Prix","pos":"10","date":"2023-05-07","circuit":{"circuitId":"miami","circuitName":"Miami International Autodrome","location":{"locality":"Miami","country":"USA"}}},{"raceName":"Monaco Grand Prix","pos":"19","date":"2023-05-28","circuit":{"circuitId":"monaco","circuitName":"Circuit de Monaco","location":{"locality":"Monte-Carlo","country":"Monaco"}}},{"raceName":"Spanish Grand Prix","pos":"18","date":"2023-06-04","circuit":{"circuitId":"catalunya","circuitName":"Circuit de Barcelona-Catalunya","location":{"locality":"Montmeló","country":"Spain"}}},{"raceName":"Canadian Grand Prix","pos":"17","date":"2023-06-18","circuit":{"circuitId":"villeneuve","circuitName":"Circuit Gilles Villeneuve","location":{"locality":"Montreal","country":"Canada"}}}]},{"constructor":"mclaren","code":"NOR","birth_date":"1999-11-13","nationality":"British","name":"Lando","second_name":"Norris","driverId":"norris","perm_num":4,"standings":[{"raceName":"Bahrain Grand Prix","pos":"17","date":"2023-03-05","circuit":{"circuitId":"bahrain","circuitName":"Bahrain International Circuit","location":{"locality":"Sakhir","country":"Bahrain"}}},{"raceName":"Saudi Arabian Grand Prix","pos":"17","date":"2023-03-19","circuit":{"circuitId":"jeddah","circuitName":"Jeddah Corniche Circuit","location":{"locality":"Jeddah","country":"Saudi Arabia"}}},{"raceName":"Australian Grand Prix","pos":"6","date":"2023-04-02","circuit":{"circuitId":"albert_park","circuitName":"Albert Park Grand Prix Circuit","location":{"locality":"Melbourne","country":"Australia"}}},{"raceName":"Azerbaijan Grand Prix","pos":"9","date":"2023-04-30","circuit":{"circuitId":"baku","circuitName":"Baku City Circuit","location":{"locality":"Baku","country":"Azerbaijan"}}},{"raceName":"Miami Grand Prix","pos":"17","date":"2023-05-07","circuit":{"circuitId":"miami","circuitName":"Miami International Autodrome","location":{"locality":"Miami","country":"USA"}}},{"raceName":"Monaco Grand Prix","pos":"9","date":"2023-05-28","circuit":{"circuitId":"monaco","circuitName":"Circuit de Monaco","location":{"locality":"Monte-Carlo","country":"Monaco"}}},{"raceName":"Spanish Grand Prix","pos":"17","date":"2023-06-04","circuit":{"circuitId":"catalunya","circuitName":"Circuit de Barcelona-Catalunya","location":{"locality":"Montmeló","country":"Spain"}}},{"raceName":"Canadian Grand Prix","pos":"13","date":"2023-06-18","circuit":{"circuitId":"villeneuve","circuitName":"Circuit Gilles Villeneuve","location":{"locality":"Montreal","country":"Canada"}}}]},{"constructor":"mclaren","code":"PIA","birth_date":"2001-04-06","nationality":"Australian","name":"Oscar","second_name":"Piastri","driverId":"piastri","perm_num":81,"standings":[{"raceName":"Bahrain Grand Prix","pos":"20","date":"2023-03-05","circuit":{"circuitId":"bahrain","circuitName":"Bahrain International Circuit","location":{"locality":"Sakhir","country":"Bahrain"}}},{"raceName":"Saudi Arabian Grand Prix","pos":"15","date":"2023-03-19","circuit":{"circuitId":"jeddah","circuitName":"Jeddah Corniche Circuit","location":{"locality":"Jeddah","country":"Saudi Arabia"}}},{"raceName":"Australian Grand Prix","pos":"8","date":"2023-04-02","circuit":{"circuitId":"albert_park","circuitName":"Albert Park Grand Prix Circuit","location":{"locality":"Melbourne","country":"Australia"}}},{"raceName":"Azerbaijan Grand Prix","pos":"11","date":"2023-04-30","circuit":{"circuitId":"baku","circuitName":"Baku City Circuit","location":{"locality":"Baku","country":"Azerbaijan"}}},{"raceName":"Miami Grand Prix","pos":"19","date":"2023-05-07","circuit":{"circuitId":"miami","circuitName":"Miami International Autodrome","location":{"locality":"Miami","country":"USA"}}},{"raceName":"Monaco Grand Prix","pos":"10","date":"2023-05-28","circuit":{"circuitId":"monaco","circuitName":"Circuit de Monaco","location":{"locality":"Monte-Carlo","country":"Monaco"}}},{"raceName":"Spanish Grand Prix","pos":"13","date":"2023-06-04","circuit":{"circuitId":"catalunya","circuitName":"Circuit de Barcelona-Catalunya","location":{"locality":"Montmeló","country":"Spain"}}},{"raceName":"Canadian Grand Prix","pos":"11","date":"2023-06-18","circuit":{"circuitId":"villeneuve","circuitName":"Circuit Gilles Villeneuve","location":{"locality":"Montreal","country":"Canada"}}}]},{"constructor":"mercedes","code":"HAM","birth_date":"1985-01-07","nationality":"British","name":"Lewis","second_name":"Hamilton","driverId":"hamilton","perm_num":44,"standings":[{"raceName":"Bahrain Grand Prix","pos":"5","date":"2023-03-05","circuit":{"circuitId":"bahrain","circuitName":"Bahrain International Circuit","location":{"locality":"Sakhir","country":"Bahrain"}}},{"raceName":"Saudi Arabian Grand Prix","pos":"5","date":"2023-03-19","circuit":{"circuitId":"jeddah","circuitName":"Jeddah Corniche Circuit","location":{"locality":"Jeddah","country":"Saudi Arabia"}}},{"raceName":"Australian Grand Prix","pos":"2","date":"2023-04-02","circuit":{"circuitId":"albert_park","circuitName":"Albert Park Grand Prix Circuit","location":{"locality":"Melbourne","country":"Australia"}}},{"raceName":"Azerbaijan Grand Prix","pos":"6","date":"2023-04-30","circuit":{"circuitId":"baku","circuitName":"Baku City Circuit","location":{"locality":"Baku","country":"Azerbaijan"}}},{"raceName":"Miami Grand Prix","pos":"6","date":"2023-05-07","circuit":{"circuitId":"miami","circuitName":"Miami International Autodrome","location":{"locality":"Miami","country":"USA"}}},{"raceName":"Monaco Grand Prix","pos":"4","date":"2023-05-28","circuit":{"circuitId":"monaco","circuitName":"Circuit de Monaco","location":{"locality":"Monte-Carlo","country":"Monaco"}}},{"raceName":"Spanish Grand Prix","pos":"2","date":"2023-06-04","circuit":{"circuitId":"catalunya","circuitName":"Circuit de Barcelona-Catalunya","location":{"locality":"Montmeló","country":"Spain"}}},{"raceName":"Canadian Grand Prix","pos":"3","date":"2023-06-18","circuit":{"circuitId":"villeneuve","circuitName":"Circuit Gilles Villeneuve","location":{"locality":"Montreal","country":"Canada"}}}]},{"constructor":"mercedes","code":"RUS","birth_date":"1998-02-15","nationality":"British","name":"George","second_name":"Russell","driverId":"russell","perm_num":63,"standings":[{"raceName":"Bahrain Grand Prix","pos":"7","date":"2023-03-05","circuit":{"circuitId":"bahrain","circuitName":"Bahrain International Circuit","location":{"locality":"Sakhir","country":"Bahrain"}}},{"raceName":"Saudi Arabian Grand Prix","pos":"4","date":"2023-03-19","circuit":{"circuitId":"jeddah","circuitName":"Jeddah Corniche Circuit","location":{"locality":"Jeddah","country":"Saudi Arabia"}}},{"raceName":"Australian Grand Prix","pos":"18","date":"2023-04-02","circuit":{"circuitId":"albert_park","circuitName":"Albert Park Grand Prix Circuit","location":{"locality":"Melbourne","country":"Australia"}}},{"raceName":"Azerbaijan Grand Prix","pos":"8","date":"2023-04-30","circuit":{"circuitId":"baku","circuitName":"Baku City Circuit","location":{"locality":"Baku","country":"Azerbaijan"}}},{"raceName":"Miami Grand Prix","pos":"4","date":"2023-05-07","circuit":{"circuitId":"miami","circuitName":"Miami International Autodrome","location":{"locality":"Miami","country":"USA"}}},{"raceName":"Monaco Grand Prix","pos":"5","date":"2023-05-28","circuit":{"circuitId":"monaco","circuitName":"Circuit de Monaco","location":{"locality":"Monte-Carlo","country":"Monaco"}}},{"raceName":"Spanish Grand Prix","pos":"3","date":"2023-06-04","circuit":{"circuitId":"catalunya","circuitName":"Circuit de Barcelona-Catalunya","location":{"locality":"Montmeló","country":"Spain"}}},{"raceName":"Canadian Grand Prix","pos":"19","date":"2023-06-18","circuit":{"circuitId":"villeneuve","circuitName":"Circuit Gilles Villeneuve","location":{"locality":"Montreal","country":"Canada"}}}]},{"constructor":"red_bull","code":"PER","birth_date":"1990-01-26","nationality":"Mexican","name":"Sergio","second_name":"Pérez","driverId":"perez","perm_num":11,"standings":[{"raceName":"Bahrain Grand Prix","pos":"2","date":"2023-03-05","circuit":{"circuitId":"bahrain","circuitName":"Bahrain International Circuit","location":{"locality":"Sakhir","country":"Bahrain"}}},{"raceName":"Saudi Arabian Grand Prix","pos":"1","date":"2023-03-19","circuit":{"circuitId":"jeddah","circuitName":"Jeddah Corniche Circuit","location":{"locality":"Jeddah","country":"Saudi Arabia"}}},{"raceName":"Australian Grand Prix","pos":"5","date":"2023-04-02","circuit":{"circuitId":"albert_park","circuitName":"Albert Park Grand Prix Circuit","location":{"locality":"Melbourne","country":"Australia"}}},{"raceName":"Azerbaijan Grand Prix","pos":"1","date":"2023-04-30","circuit":{"circuitId":"baku","circuitName":"Baku City Circuit","location":{"locality":"Baku","country":"Azerbaijan"}}},{"raceName":"Miami Grand Prix","pos":"2","date":"2023-05-07","circuit":{"circuitId":"miami","circuitName":"Miami International Autodrome","location":{"locality":"Miami","country":"USA"}}},{"raceName":"Monaco Grand Prix","pos":"16","date":"2023-05-28","circuit":{"circuitId":"monaco","circuitName":"Circuit de Monaco","location":{"locality":"Monte-Carlo","country":"Monaco"}}},{"raceName":"Spanish Grand Prix","pos":"4","date":"2023-06-04","circuit":{"circuitId":"catalunya","circuitName":"Circuit de Barcelona-Catalunya","location":{"locality":"Montmeló","country":"Spain"}}},{"raceName":"Canadian Grand Prix","pos":"6","date":"2023-06-18","circuit":{"circuitId":"villeneuve","circuitName":"Circuit Gilles Villeneuve","location":{"locality":"Montreal","country":"Canada"}}}]},{"constructor":"red_bull","code":"VER","birth_date":"1997-09-30","nationality":"Dutch","name":"Max","second_name":"Verstappen","driverId":"max_verstappen","perm_num":33,"standings":[{"raceName":"Bahrain Grand Prix","pos":"1","date":"2023-03-05","circuit":{"circuitId":"bahrain","circuitName":"Bahrain International Circuit","location":{"locality":"Sakhir","country":"Bahrain"}}},{"raceName":"Saudi Arabian Grand Prix","pos":"2","date":"2023-03-19","circuit":{"circuitId":"jeddah","circuitName":"Jeddah Corniche Circuit","location":{"locality":"Jeddah","country":"Saudi Arabia"}}},{"raceName":"Australian Grand Prix","pos":"1","date":"2023-04-02","circuit":{"circuitId":"albert_park","circuitName":"Albert Park Grand Prix Circuit","location":{"locality":"Melbourne","country":"Australia"}}},{"raceName":"Azerbaijan Grand Prix","pos":"2","date":"2023-04-30","circuit":{"circuitId":"baku","circuitName":"Baku City Circuit","location":{"locality":"Baku","country":"Azerbaijan"}}},{"raceName":"Miami Grand Prix","pos":"1","date":"2023-05-07","circuit":{"circuitId":"miami","circuitName":"Miami International Autodrome","location":{"locality":"Miami","country":"USA"}}},{"raceName":"Monaco Grand Prix","pos":"1","date":"2023-05-28","circuit":{"circuitId":"monaco","circuitName":"Circuit de Monaco","location":{"locality":"Monte-Carlo","country":"Monaco"}}},{"raceName":"Spanish Grand Prix","pos":"1","date":"2023-06-04","circuit":{"circuitId":"catalunya","circuitName":"Circuit de Barcelona-Catalunya","location":{"locality":"Montmeló","country":"Spain"}}},{"raceName":"Canadian Grand Prix","pos":"1","date":"2023-06-18","circuit":{"circuitId":"villeneuve","circuitName":"Circuit Gilles Villeneuve","location":{"locality":"Montreal","country":"Canada"}}}]},{"constructor":"williams","code":"ALB","birth_date":"1996-03-23","nationality":"Thai","name":"Alexander","second_name":"Albon","driverId":"albon","perm_num":23,"standings":[{"raceName":"Bahrain Grand Prix","pos":"10","date":"2023-03-05","circuit":{"circuitId":"bahrain","circuitName":"Bahrain International Circuit","location":{"locality":"Sakhir","country":"Bahrain"}}},{"raceName":"Saudi Arabian Grand Prix","pos":"19","date":"2023-03-19","circuit":{"circuitId":"jeddah","circuitName":"Jeddah Corniche Circuit","location":{"locality":"Jeddah","country":"Saudi Arabia"}}},{"raceName":"Australian Grand Prix","pos":"19","date":"2023-04-02","circuit":{"circuitId":"albert_park","circuitName":"Albert Park Grand Prix Circuit","location":{"locality":"Melbourne","country":"Australia"}}},{"raceName":"Azerbaijan Grand Prix","pos":"12","date":"2023-04-30","circuit":{"circuitId":"baku","circuitName":"Baku City Circuit","location":{"locality":"Baku","country":"Azerbaijan"}}},{"raceName":"Miami Grand Prix","pos":"14","date":"2023-05-07","circuit":{"circuitId":"miami","circuitName":"Miami International Autodrome","location":{"locality":"Miami","country":"USA"}}},{"raceName":"Monaco Grand Prix","pos":"14","date":"2023-05-28","circuit":{"circuitId":"monaco","circuitName":"Circuit de Monaco","location":{"locality":"Monte-Carlo","country":"Monaco"}}},{"raceName":"Spanish Grand Prix","pos":"16","date":"2023-06-04","circuit":{"circuitId":"catalunya","circuitName":"Circuit de Barcelona-Catalunya","location":{"locality":"Montmeló","country":"Spain"}}},{"raceName":"Canadian Grand Prix","pos":"7","date":"2023-06-18","circuit":{"circuitId":"villeneuve","circuitName":"Circuit Gilles Villeneuve","location":{"locality":"Montreal","country":"Canada"}}}]},{"constructor":"williams","code":"SAR","birth_date":"2000-12-31","nationality":"American","name":"Logan","second_name":"Sargeant","driverId":"sargeant","perm_num":2,"standings":[{"raceName":"Bahrain Grand Prix","pos":"12","date":"2023-03-05","circuit":{"circuitId":"bahrain","circuitName":"Bahrain International Circuit","location":{"locality":"Sakhir","country":"Bahrain"}}},{"raceName":"Saudi Arabian Grand Prix","pos":"16","date":"2023-03-19","circuit":{"circuitId":"jeddah","circuitName":"Jeddah Corniche Circuit","location":{"locality":"Jeddah","country":"Saudi Arabia"}}},{"raceName":"Australian Grand Prix","pos":"16","date":"2023-04-02","circuit":{"circuitId":"albert_park","circuitName":"Albert Park Grand Prix Circuit","location":{"locality":"Melbourne","country":"Australia"}}},{"raceName":"Azerbaijan Grand Prix","pos":"16","date":"2023-04-30","circuit":{"circuitId":"baku","circuitName":"Baku City Circuit","location":{"locality":"Baku","country":"Azerbaijan"}}},{"raceName":"Miami Grand Prix","pos":"20","date":"2023-05-07","circuit":{"circuitId":"miami","circuitName":"Miami International Autodrome","location":{"locality":"Miami","country":"USA"}}},{"raceName":"Monaco Grand Prix","pos":"18","date":"2023-05-28","circuit":{"circuitId":"monaco","circuitName":"Circuit de Monaco","location":{"locality":"Monte-Carlo","country":"Monaco"}}},{"raceName":"Spanish Grand Prix","pos":"20","date":"2023-06-04","circuit":{"circuitId":"catalunya","circuitName":"Circuit de Barcelona-Catalunya","location":{"locality":"Montmeló","country":"Spain"}}},{"raceName":"Canadian Grand Prix","pos":"20","date":"2023-06-18","circuit":{"circuitId":"villeneuve","circuitName":"Circuit Gilles Villeneuve","location":{"locality":"Montreal","country":"Canada"}}}]}],[{"constructorId":"alfa","name":"Alfa Romeo","nationality":"Swiss"},{"constructorId":"alphatauri","name":"AlphaTauri","nationality":"Italian"},{"constructorId":"alpine","name":"Alpine F1 Team","nationality":"French"},{"constructorId":"aston_martin","name":"Aston Martin","nationality":"British"},{"constructorId":"ferrari","name":"Ferrari","nationality":"Italian"},{"constructorId":"haas","name":"Haas F1 Team","nationality":"American"},{"constructorId":"mclaren","name":"McLaren","nationality":"British"},{"constructorId":"mercedes","name":"Mercedes","nationality":"German"},{"constructorId":"red_bull","name":"Red Bull","nationality":"Austrian"},{"constructorId":"williams","name":"Williams","nationality":"British"}]]